{
  "opendata": {
    "request": "http:\/\/data.keolis-rennes.com\/json\/?version=2.0&key=KEY_API&cmd=getbikestations",
    "answer": {
      "status": {
        "@attributes": {
          "code": "0",
          "message": "OK"
        }
      },
      "data": {
        "station": [
          {
            "number": "75",
            "name": "ZAC SAINT SULPICE",
            "address": "304 RUE DE FOUG\u00c8RES",
            "state": "1",
            "latitude": "48.13213",
            "longitude": "-1.635198",
            "slotsavailable": "15",
            "bikesavailable": "14",
            "pos": "0",
            "district": "Maurepas - Patton",
            "lastupdate": "2015-07-14T22:10:03+02:00"
          },
          {
            "number": "52",
            "name": "VILLEJEAN-UNIVERSITE",
            "address": "PLACE RECTEUR HENRI LE MOAL",
            "state": "1",
            "latitude": "48.121075",
            "longitude": "-1.704122",
            "slotsavailable": "10",
            "bikesavailable": "16",
            "pos": "1",
            "district": "Villejean-Beauregard",
            "lastupdate": "2015-07-14T22:10:03+02:00"
          },
          {
            "number": "81",
            "name": "TURMEL",
            "address": "109 BOULEVARD DE VITR\u00c9",
            "state": "1",
            "latitude": "48.12247",
            "longitude": "-1.651085",
            "slotsavailable": "16",
            "bikesavailable": "0",
            "pos": "0",
            "district": "Maurepas - Patton",
            "lastupdate": "2015-07-14T22:10:03+02:00"
          },
          {
            "number": "12",
            "name": "TNB",
            "address": "1 SQUARE DE KERGUS",
            "state": "1",
            "latitude": "48.107746",
            "longitude": "-1.673711",
            "slotsavailable": "24",
            "bikesavailable": "4",
            "pos": "0",
            "district": "Centre-Ville",
            "lastupdate": "2015-07-14T22:10:03+02:00"
          },
          {
            "number": "71",
            "name": "SAINTE THERESE",
            "address": "76 BOULEVARD EMILE COMBES",
            "state": "1",
            "latitude": "48.094986",
            "longitude": "-1.663731",
            "slotsavailable": "5",
            "bikesavailable": "7",
            "pos": "0",
            "district": "Sud-Gare",
            "lastupdate": "2015-07-14T22:10:03+02:00"
          },
          {
            "number": "5",
            "name": "SAINTE-ANNE",
            "address": "16 PLACE SAINTE-ANNE",
            "state": "1",
            "latitude": "48.1145",
            "longitude": "-1.680984",
            "slotsavailable": "24",
            "bikesavailable": "0",
            "pos": "1",
            "district": "Centre-Ville",
            "lastupdate": "2015-07-14T22:10:03+02:00"
          },
          {
            "number": "9",
            "name": "SAINT GEORGES",
            "address": "21 RUE VICTOR HUGO",
            "state": "1",
            "latitude": "48.112385",
            "longitude": "-1.674417",
            "slotsavailable": "4",
            "bikesavailable": "14",
            "pos": "0",
            "district": "Centre-Ville",
            "lastupdate": "2015-07-14T22:10:03+02:00"
          },
          {
            "number": "23",
            "name": "ROTONDE",
            "address": "2 RUE DE REDON",
            "state": "1",
            "latitude": "48.10665",
            "longitude": "-1.68677",
            "slotsavailable": "15",
            "bikesavailable": "5",
            "pos": "0",
            "district": "Cleunay-Arsenal-Redon",
            "lastupdate": "2015-07-14T22:10:03+02:00"
          },
          {
            "number": "1",
            "name": "REPUBLIQUE",
            "address": "19 QUAI LAMARTINE",
            "state": "1",
            "latitude": "48.110027",
            "longitude": "-1.678037",
            "slotsavailable": "2",
            "bikesavailable": "28",
            "pos": "1",
            "district": "Centre-Ville",
            "lastupdate": "2015-07-14T22:10:03+02:00"
          },
          {
            "number": "8",
            "name": "RECTORAT",
            "address": "92 RUE D'ANTRAIN",
            "state": "1",
            "latitude": "48.119377",
            "longitude": "-1.67449",
            "slotsavailable": "7",
            "bikesavailable": "11",
            "pos": "0",
            "district": "Centre-Ville",
            "lastupdate": "2015-07-14T22:10:03+02:00"
          },
          {
            "number": "55",
            "name": "PREFECTURE",
            "address": "1 AVENUE DE CUCILL\u00c9",
            "state": "1",
            "latitude": "48.128452",
            "longitude": "-1.694032",
            "slotsavailable": "20",
            "bikesavailable": "7",
            "pos": "0",
            "district": "Villejean-Beauregard",
            "lastupdate": "2015-07-14T22:10:03+02:00"
          },
          {
            "number": "39",
            "name": "PONTCHAILLOU",
            "address": "CHR PONTCHAILLOU",
            "state": "1",
            "latitude": "48.12148",
            "longitude": "-1.692737",
            "slotsavailable": "17",
            "bikesavailable": "11",
            "pos": "0",
            "district": "Villejean-Beauregard",
            "lastupdate": "2015-07-14T22:10:03+02:00"
          },
          {
            "number": "42",
            "name": "ROBIDOU",
            "address": "89 RUE ALPHONSE GU\u00c9RIN",
            "state": "1",
            "latitude": "48.10998",
            "longitude": "-1.659299",
            "slotsavailable": "10",
            "bikesavailable": "10",
            "pos": "0",
            "district": "Thabor - St H\u00e9lier",
            "lastupdate": "2015-07-14T22:10:03+02:00"
          },
          {
            "number": "20",
            "name": "PONT DE NANTES",
            "address": "32 RUE DU DOCTEUR FRANCIS JOLY",
            "state": "0",
            "latitude": "48.102016",
            "longitude": "-1.684015",
            "slotsavailable": "0",
            "bikesavailable": "0",
            "pos": "0",
            "district": "Centre-Ville",
            "lastupdate": "2015-07-14T22:10:03+02:00"
          },
          {
            "number": "35",
            "name": "PONT DE CHATEAUDUN",
            "address": "71 AVENUE ARISTIDE BRIAND",
            "state": "1",
            "latitude": "48.11026",
            "longitude": "-1.664332",
            "slotsavailable": "16",
            "bikesavailable": "4",
            "pos": "0",
            "district": "Thabor - St H\u00e9lier",
            "lastupdate": "2015-07-14T22:10:03+02:00"
          },
          {
            "number": "19",
            "name": "PLELO COLOMBIER",
            "address": "1 RUE DU PUITS MAUGER",
            "state": "1",
            "latitude": "48.105896",
            "longitude": "-1.681374",
            "slotsavailable": "16",
            "bikesavailable": "2",
            "pos": "0",
            "district": "Centre-Ville",
            "lastupdate": "2015-07-14T22:10:03+02:00"
          },
          {
            "number": "4",
            "name": "PLACE HOCHE",
            "address": "12 PLACE HOCHE",
            "state": "1",
            "latitude": "48.115074",
            "longitude": "-1.677073",
            "slotsavailable": "11",
            "bikesavailable": "13",
            "pos": "0",
            "district": "Centre-Ville",
            "lastupdate": "2015-07-14T22:10:03+02:00"
          },
          {
            "number": "24",
            "name": "PLACE DE BRETAGNE",
            "address": "3 PLACE DE BRETAGNE",
            "state": "1",
            "latitude": "48.10962",
            "longitude": "-1.684019",
            "slotsavailable": "3",
            "bikesavailable": "16",
            "pos": "0",
            "district": "Centre-Ville",
            "lastupdate": "2015-07-14T22:10:03+02:00"
          },
          {
            "number": "59",
            "name": "PISCINE GAYEULLES",
            "address": "16 AVENUE DES GAYEULLES",
            "state": "1",
            "latitude": "48.13461",
            "longitude": "-1.651576",
            "slotsavailable": "8",
            "bikesavailable": "18",
            "pos": "0",
            "district": "Maurepas - Patton",
            "lastupdate": "2015-07-14T22:10:03+02:00"
          },
          {
            "number": "66",
            "name": "PISCINE BREQUIGNY",
            "address": "10 BOULEVARD ALBERT 1ER",
            "state": "1",
            "latitude": "48.089622",
            "longitude": "-1.690242",
            "slotsavailable": "13",
            "bikesavailable": "11",
            "pos": "0",
            "district": "Br\u00e9quigny",
            "lastupdate": "2015-07-14T22:10:03+02:00"
          },
          {
            "number": "40",
            "name": "PIERRE MARTIN",
            "address": "119 RUE SAINT-H\u00c9LIER",
            "state": "1",
            "latitude": "48.1035",
            "longitude": "-1.662322",
            "slotsavailable": "3",
            "bikesavailable": "17",
            "pos": "0",
            "district": "Francisco Ferrer-Vern-Poterie",
            "lastupdate": "2015-07-14T22:10:03+02:00"
          },
          {
            "number": "36",
            "name": "PAUL BERT",
            "address": "9 AVENUE ARISTIDE BRIAND",
            "state": "1",
            "latitude": "48.110115",
            "longitude": "-1.670039",
            "slotsavailable": "6",
            "bikesavailable": "10",
            "pos": "0",
            "district": "Thabor - St H\u00e9lier",
            "lastupdate": "2015-07-14T22:10:03+02:00"
          },
          {
            "number": "80",
            "name": "PAINLEVE",
            "address": "197 RUE DE FOUG\u00c8RES",
            "state": "1",
            "latitude": "48.122993",
            "longitude": "-1.660547",
            "slotsavailable": "4",
            "bikesavailable": "14",
            "pos": "0",
            "district": "Jeanne d'Arc-Longs Champs-Atalante",
            "lastupdate": "2015-07-14T22:10:03+02:00"
          },
          {
            "number": "25",
            "name": "OFFICE DE TOURISME",
            "address": "2 RUE LE BOUTEILLER",
            "state": "1",
            "latitude": "48.110294",
            "longitude": "-1.683106",
            "slotsavailable": "9",
            "bikesavailable": "1",
            "pos": "1",
            "district": "Centre-Ville",
            "lastupdate": "2015-07-14T22:10:03+02:00"
          },
          {
            "number": "22",
            "name": "OBERTHUR",
            "address": "4 RUE GUTENBERG",
            "state": "1",
            "latitude": "48.11355",
            "longitude": "-1.661858",
            "slotsavailable": "14",
            "bikesavailable": "6",
            "pos": "0",
            "district": "Thabor - St H\u00e9lier",
            "lastupdate": "2015-07-14T22:10:03+02:00"
          },
          {
            "number": "10",
            "name": "MUSEE BEAUX ARTS",
            "address": "3 AVENUE JEAN JANVIER",
            "state": "1",
            "latitude": "48.1096",
            "longitude": "-1.674081",
            "slotsavailable": "14",
            "bikesavailable": "2",
            "pos": "0",
            "district": "Centre-Ville",
            "lastupdate": "2015-07-14T22:10:03+02:00"
          },
          {
            "number": "46",
            "name": "PLAINE DE BAUD",
            "address": "2 RUE DU MOULIN DE JOU\u00c9",
            "state": "1",
            "latitude": "48.112488",
            "longitude": "-1.643861",
            "slotsavailable": "18",
            "bikesavailable": "6",
            "pos": "0",
            "district": "Jeanne d'Arc-Longs Champs-Atalante",
            "lastupdate": "2015-07-14T22:10:03+02:00"
          },
          {
            "number": "76",
            "name": "MONTS D'ARREE",
            "address": "3 RUE EMILE BERNARD",
            "state": "1",
            "latitude": "48.1367",
            "longitude": "-1.66667",
            "slotsavailable": "5",
            "bikesavailable": "8",
            "pos": "0",
            "district": "Maurepas - Patton",
            "lastupdate": "2015-07-14T22:10:03+02:00"
          },
          {
            "number": "44",
            "name": "METZ SEVIGNE",
            "address": "28 BOULEVARD DE METZ",
            "state": "1",
            "latitude": "48.115993",
            "longitude": "-1.658258",
            "slotsavailable": "7",
            "bikesavailable": "9",
            "pos": "0",
            "district": "Jeanne d'Arc-Longs Champs-Atalante",
            "lastupdate": "2015-07-14T22:10:03+02:00"
          },
          {
            "number": "70",
            "name": "MERMOZ",
            "address": "189 RUE DE NANTES",
            "state": "1",
            "latitude": "48.097927",
            "longitude": "-1.688143",
            "slotsavailable": "6",
            "bikesavailable": "6",
            "pos": "0",
            "district": "Sud-Gare",
            "lastupdate": "2015-07-14T22:10:03+02:00"
          },
          {
            "number": "38",
            "name": "MARBEUF",
            "address": "37 RUE LOUIS GUILLOUX",
            "state": "1",
            "latitude": "48.111748",
            "longitude": "-1.702077",
            "slotsavailable": "13",
            "bikesavailable": "7",
            "pos": "0",
            "district": "Bourg l'Ev\u00eaque-La Touche-Moulin du Comte",
            "lastupdate": "2015-07-14T22:10:03+02:00"
          },
          {
            "number": "31",
            "name": "VOLTAIRE",
            "address": "50 BOULEVARD VOLTAIRE",
            "state": "1",
            "latitude": "48.10524",
            "longitude": "-1.698107",
            "slotsavailable": "8",
            "bikesavailable": "8",
            "pos": "0",
            "district": "Cleunay-Arsenal-Redon",
            "lastupdate": "2015-07-14T22:10:03+02:00"
          },
          {
            "number": "2",
            "name": "MAIRIE",
            "address": "12 GALERIE DU TH\u00c9\u00c2TRE",
            "state": "1",
            "latitude": "48.111626",
            "longitude": "-1.678757",
            "slotsavailable": "21",
            "bikesavailable": "3",
            "pos": "1",
            "district": "Centre-Ville",
            "lastupdate": "2015-07-14T22:10:03+02:00"
          },
          {
            "number": "11",
            "name": "LIBERTE",
            "address": "18 B BOULEVARD DE LA LIBERT\u00c9",
            "state": "1",
            "latitude": "48.107513",
            "longitude": "-1.678163",
            "slotsavailable": "20",
            "bikesavailable": "4",
            "pos": "0",
            "district": "Centre-Ville",
            "lastupdate": "2015-07-14T22:10:03+02:00"
          },
          {
            "number": "26",
            "name": "LES LICES",
            "address": "9 RUE DE JUILLET",
            "state": "1",
            "latitude": "48.112766",
            "longitude": "-1.685037",
            "slotsavailable": "0",
            "bikesavailable": "20",
            "pos": "0",
            "district": "Centre-Ville",
            "lastupdate": "2015-07-14T22:10:03+02:00"
          },
          {
            "number": "21",
            "name": "LES HALLES",
            "address": "32 RUE DE NEMOURS",
            "state": "1",
            "latitude": "48.107624",
            "longitude": "-1.680085",
            "slotsavailable": "0",
            "bikesavailable": "0",
            "pos": "0",
            "district": "Centre-Ville",
            "lastupdate": "2015-07-14T22:10:03+02:00"
          },
          {
            "number": "14",
            "name": "LAENNEC",
            "address": "11 BOULEVARD REN\u00c9 LA\u00cbNNEC",
            "state": "1",
            "latitude": "48.106846",
            "longitude": "-1.665817",
            "slotsavailable": "7",
            "bikesavailable": "9",
            "pos": "0",
            "district": "Thabor - St H\u00e9lier",
            "lastupdate": "2015-07-14T22:10:03+02:00"
          },
          {
            "number": "32",
            "name": "LA TOUCHE",
            "address": "64 BOULEVARD DE VERDUN",
            "state": "1",
            "latitude": "48.116608",
            "longitude": "-1.690944",
            "slotsavailable": "12",
            "bikesavailable": "4",
            "pos": "0",
            "district": "Bourg l'Ev\u00eaque-La Touche-Moulin du Comte",
            "lastupdate": "2015-07-14T22:10:03+02:00"
          },
          {
            "number": "58",
            "name": "LA HARPE",
            "address": "2 RUE DOYEN DENIS LEROY",
            "state": "1",
            "latitude": "48.125618",
            "longitude": "-1.710315",
            "slotsavailable": "13",
            "bikesavailable": "12",
            "pos": "0",
            "district": "Villejean-Beauregard",
            "lastupdate": "2015-07-14T22:10:03+02:00"
          },
          {
            "number": "29",
            "name": "JULES FERRY",
            "address": "103 RUE D'ANTRAIN",
            "state": "1",
            "latitude": "48.12137",
            "longitude": "-1.671152",
            "slotsavailable": "5",
            "bikesavailable": "11",
            "pos": "0",
            "district": "Maurepas - Patton",
            "lastupdate": "2015-07-14T22:10:03+02:00"
          },
          {
            "number": "53",
            "name": "J.F. KENNEDY",
            "address": "36 COURS PR\u00c9SIDENT JOHN FITZGERALD KEN",
            "state": "1",
            "latitude": "48.121468",
            "longitude": "-1.709933",
            "slotsavailable": "7",
            "bikesavailable": "16",
            "pos": "0",
            "district": "Villejean-Beauregard",
            "lastupdate": "2015-07-14T22:10:03+02:00"
          },
          {
            "number": "61",
            "name": "JACQUES CARTIER",
            "address": "155 BOULEVARD JACQUES CARTIER",
            "state": "1",
            "latitude": "48.09753",
            "longitude": "-1.674306",
            "slotsavailable": "6",
            "bikesavailable": "18",
            "pos": "0",
            "district": "Sud-Gare",
            "lastupdate": "2015-07-14T22:10:03+02:00"
          },
          {
            "number": "64",
            "name": "ITALIE",
            "address": "6 AVENUE D'ITALIE",
            "state": "1",
            "latitude": "48.08674",
            "longitude": "-1.667568",
            "slotsavailable": "10",
            "bikesavailable": "6",
            "pos": "0",
            "district": "Le Blosne",
            "lastupdate": "2015-07-14T22:10:03+02:00"
          },
          {
            "number": "77",
            "name": "HOUX CITE U",
            "address": "2 RUE DU HOUX",
            "state": "1",
            "latitude": "48.130524",
            "longitude": "-1.663173",
            "slotsavailable": "4",
            "bikesavailable": "10",
            "pos": "0",
            "district": "Maurepas - Patton",
            "lastupdate": "2015-07-14T22:10:03+02:00"
          },
          {
            "number": "6",
            "name": "HOTEL DIEU",
            "address": "2 RUE DE LA COCHARDI\u00c8RE",
            "state": "1",
            "latitude": "48.117596",
            "longitude": "-1.677849",
            "slotsavailable": "24",
            "bikesavailable": "2",
            "pos": "0",
            "district": "Centre-Ville",
            "lastupdate": "2015-07-14T22:10:03+02:00"
          },
          {
            "number": "27",
            "name": "HORIZONS",
            "address": "6 RUE DE BREST",
            "state": "1",
            "latitude": "48.112064",
            "longitude": "-1.688502",
            "slotsavailable": "6",
            "bikesavailable": "8",
            "pos": "0",
            "district": "Bourg l'Ev\u00eaque-La Touche-Moulin du Comte",
            "lastupdate": "2015-07-14T22:10:03+02:00"
          },
          {
            "number": "63",
            "name": "HENRI FREVILLE",
            "address": "24 AVENUE HENRI FR\u00c9VILLE",
            "state": "1",
            "latitude": "48.087337",
            "longitude": "-1.67485",
            "slotsavailable": "14",
            "bikesavailable": "10",
            "pos": "1",
            "district": "Br\u00e9quigny",
            "lastupdate": "2015-07-14T22:10:03+02:00"
          },
          {
            "number": "78",
            "name": "GROS CHENE",
            "address": "204 AVENUE G\u00c9N\u00c9RAL GEORGE S PATTON",
            "state": "1",
            "latitude": "48.126797",
            "longitude": "-1.665101",
            "slotsavailable": "3",
            "bikesavailable": "15",
            "pos": "0",
            "district": "Maurepas - Patton",
            "lastupdate": "2015-07-14T22:10:03+02:00"
          },
          {
            "number": "73",
            "name": "GENIAUX",
            "address": "101 RUE DE LORIENT",
            "state": "1",
            "latitude": "48.10893",
            "longitude": "-1.709492",
            "slotsavailable": "11",
            "bikesavailable": "4",
            "pos": "0",
            "district": "Cleunay-Arsenal-Redon",
            "lastupdate": "2015-07-14T22:10:03+02:00"
          },
          {
            "number": "45",
            "name": "GARES (SUD)",
            "address": "19 B RUE DE CH\u00c2TILLON",
            "state": "1",
            "latitude": "48.10225",
            "longitude": "-1.673133",
            "slotsavailable": "7",
            "bikesavailable": "13",
            "pos": "0",
            "district": "Sud-Gare",
            "lastupdate": "2015-07-14T22:10:03+02:00"
          },
          {
            "number": "15",
            "name": "GARE SOLFERINO",
            "address": "2 BOULEVARD SOLFERINO",
            "state": "1",
            "latitude": "48.104156",
            "longitude": "-1.671268",
            "slotsavailable": "33",
            "bikesavailable": "2",
            "pos": "1",
            "district": "Thabor - St H\u00e9lier",
            "lastupdate": "2015-07-14T22:10:03+02:00"
          },
          {
            "number": "7",
            "name": "FAC DE DROIT",
            "address": "46 RUE JEAN GU\u00c9HENNO",
            "state": "0",
            "latitude": "48.11817",
            "longitude": "-1.670736",
            "slotsavailable": "0",
            "bikesavailable": "0",
            "pos": "0",
            "district": "Thabor - St H\u00e9lier",
            "lastupdate": "2015-07-14T22:10:03+02:00"
          },
          {
            "number": "30",
            "name": "GUEHENNO-FOUGERES",
            "address": "121 RUE DE FOUG\u00c8RES",
            "state": "1",
            "latitude": "48.11984",
            "longitude": "-1.666227",
            "slotsavailable": "1",
            "bikesavailable": "15",
            "pos": "0",
            "district": "Thabor - St H\u00e9lier",
            "lastupdate": "2015-07-14T22:10:03+02:00"
          },
          {
            "number": "13",
            "name": "DINAN",
            "address": "21 RUE LEGRAVEREND",
            "state": "1",
            "latitude": "48.117214",
            "longitude": "-1.682697",
            "slotsavailable": "8",
            "bikesavailable": "8",
            "pos": "0",
            "district": "Centre-Ville",
            "lastupdate": "2015-07-14T22:10:03+02:00"
          },
          {
            "number": "74",
            "name": "DE LESSEPS",
            "address": "40 RUE FERDINAND DE LESSEPS",
            "state": "1",
            "latitude": "48.100956",
            "longitude": "-1.707086",
            "slotsavailable": "11",
            "bikesavailable": "12",
            "pos": "0",
            "district": "Cleunay-Arsenal-Redon",
            "lastupdate": "2015-07-14T22:10:03+02:00"
          },
          {
            "number": "18",
            "name": "DALLE DU COLOMBIER",
            "address": "15 PLACE DU COLOMBIER",
            "state": "1",
            "latitude": "48.10512",
            "longitude": "-1.67868",
            "slotsavailable": "19",
            "bikesavailable": "0",
            "pos": "0",
            "district": "Centre-Ville",
            "lastupdate": "2015-07-14T22:10:03+02:00"
          },
          {
            "number": "60",
            "name": "CUCILLE",
            "address": "14 AVENUE DE CUCILL\u00c9",
            "state": "1",
            "latitude": "48.128788",
            "longitude": "-1.698129",
            "slotsavailable": "3",
            "bikesavailable": "22",
            "pos": "0",
            "district": "Villejean-Beauregard",
            "lastupdate": "2015-07-14T22:10:03+02:00"
          },
          {
            "number": "72",
            "name": "CLEUNAY",
            "address": "24 RUE JULES VALL\u00c8S",
            "state": "1",
            "latitude": "48.104206",
            "longitude": "-1.712716",
            "slotsavailable": "22",
            "bikesavailable": "4",
            "pos": "0",
            "district": "Cleunay-Arsenal-Redon",
            "lastupdate": "2015-07-14T22:10:03+02:00"
          },
          {
            "number": "62",
            "name": "CLEMENCEAU",
            "address": "1 AVENUE HENRI FR\u00c9VILLE",
            "state": "1",
            "latitude": "48.093292",
            "longitude": "-1.674116",
            "slotsavailable": "16",
            "bikesavailable": "6",
            "pos": "0",
            "district": "Sud-Gare",
            "lastupdate": "2015-07-14T22:10:03+02:00"
          },
          {
            "number": "43",
            "name": "CITE JUDICIAIRE",
            "address": "20 RUE DU PAPIER TIMBR\u00c9",
            "state": "1",
            "latitude": "48.10477",
            "longitude": "-1.68411",
            "slotsavailable": "20",
            "bikesavailable": "4",
            "pos": "0",
            "district": "Cleunay-Arsenal-Redon",
            "lastupdate": "2015-07-14T22:10:03+02:00"
          },
          {
            "number": "41",
            "name": "CIMETIERE EST",
            "address": "78 BOULEVARD VILLEBOIS-MAREUIL",
            "state": "1",
            "latitude": "48.104355",
            "longitude": "-1.65012",
            "slotsavailable": "6",
            "bikesavailable": "12",
            "pos": "0",
            "district": "Francisco Ferrer-Vern-Poterie",
            "lastupdate": "2015-07-14T22:10:03+02:00"
          },
          {
            "number": "28",
            "name": "CHEQUES POSTAUX",
            "address": "66 MAIL FRAN\u00c7OIS MITTERRAND",
            "state": "1",
            "latitude": "48.10887",
            "longitude": "-1.693404",
            "slotsavailable": "1",
            "bikesavailable": "21",
            "pos": "0",
            "district": "Bourg l'Ev\u00eaque-La Touche-Moulin du Comte",
            "lastupdate": "2015-07-14T22:10:03+02:00"
          },
          {
            "number": "17",
            "name": "CHARLES DE GAULLE",
            "address": "2 COURS DES ALLI\u00c9S",
            "state": "1",
            "latitude": "48.10511",
            "longitude": "-1.677119",
            "slotsavailable": "19",
            "bikesavailable": "5",
            "pos": "1",
            "district": "Centre-Ville",
            "lastupdate": "2015-07-14T22:10:03+02:00"
          },
          {
            "number": "69",
            "name": "CHAMPS MANCEAUX",
            "address": "14 RUE LOUIS ET REN\u00c9 MOINE",
            "state": "1",
            "latitude": "48.091114",
            "longitude": "-1.682285",
            "slotsavailable": "10",
            "bikesavailable": "8",
            "pos": "0",
            "district": "Br\u00e9quigny",
            "lastupdate": "2015-07-14T22:10:03+02:00"
          },
          {
            "number": "16",
            "name": "CHAMPS LIBRES",
            "address": "7 COURS DES ALLI\u00c9S",
            "state": "1",
            "latitude": "48.105537",
            "longitude": "-1.674328",
            "slotsavailable": "18",
            "bikesavailable": "6",
            "pos": "1",
            "district": "Centre-Ville",
            "lastupdate": "2015-07-14T22:10:03+02:00"
          },
          {
            "number": "3",
            "name": "CHAMP JACQUET",
            "address": "8 RUE DU CHAMP JACQUET",
            "state": "1",
            "latitude": "48.112762",
            "longitude": "-1.680062",
            "slotsavailable": "12",
            "bikesavailable": "12",
            "pos": "0",
            "district": "Centre-Ville",
            "lastupdate": "2015-07-14T22:10:03+02:00"
          },
          {
            "number": "34",
            "name": "BREST VERDUN",
            "address": "2 BOULEVARD DE VERDUN",
            "state": "1",
            "latitude": "48.113014",
            "longitude": "-1.693274",
            "slotsavailable": "12",
            "bikesavailable": "4",
            "pos": "0",
            "district": "Bourg l'Ev\u00eaque-La Touche-Moulin du Comte",
            "lastupdate": "2015-07-14T22:10:03+02:00"
          },
          {
            "number": "51",
            "name": "BOUZAT",
            "address": "20 SQUARE AUGUSTE DUPOUY",
            "state": "1",
            "latitude": "48.12873",
            "longitude": "-1.635134",
            "slotsavailable": "6",
            "bikesavailable": "12",
            "pos": "0",
            "district": "Jeanne d'Arc-Longs Champs-Atalante",
            "lastupdate": "2015-07-14T22:10:03+02:00"
          },
          {
            "number": "67",
            "name": "BINQUENAIS",
            "address": "24 RUE ANDR\u00c9 ROUAULT",
            "state": "1",
            "latitude": "48.091595",
            "longitude": "-1.667321",
            "slotsavailable": "2",
            "bikesavailable": "14",
            "pos": "0",
            "district": "Sud-Gare",
            "lastupdate": "2015-07-14T22:10:03+02:00"
          },
          {
            "number": "56",
            "name": "BERGER",
            "address": "1 AVENUE GASTON BERGER",
            "state": "1",
            "latitude": "48.116314",
            "longitude": "-1.705097",
            "slotsavailable": "4",
            "bikesavailable": "10",
            "pos": "0",
            "district": "Villejean-Beauregard",
            "lastupdate": "2015-07-14T22:10:03+02:00"
          },
          {
            "number": "48",
            "name": "BEAULIEU RESTAU U",
            "address": "41 AVENUE DES BUTTES DE CO\u00cbSMES",
            "state": "0",
            "latitude": "48.122047",
            "longitude": "-1.638368",
            "slotsavailable": "0",
            "bikesavailable": "0",
            "pos": "0",
            "district": "Jeanne d'Arc-Longs Champs-Atalante",
            "lastupdate": "2015-07-14T22:10:03+02:00"
          },
          {
            "number": "47",
            "name": "BEAULIEU CHIMIE",
            "address": "ALL\u00c9E DE BEAULIEU",
            "state": "1",
            "latitude": "48.11646",
            "longitude": "-1.633875",
            "slotsavailable": "16",
            "bikesavailable": "14",
            "pos": "0",
            "district": "Jeanne d'Arc-Longs Champs-Atalante",
            "lastupdate": "2015-07-14T22:10:03+02:00"
          },
          {
            "number": "49",
            "name": "BEAULIEU BOIS PERRIN",
            "address": "ALL\u00c9E JULES NOEL",
            "state": "1",
            "latitude": "48.118015",
            "longitude": "-1.642935",
            "slotsavailable": "14",
            "bikesavailable": "16",
            "pos": "0",
            "district": "Jeanne d'Arc-Longs Champs-Atalante",
            "lastupdate": "2015-07-14T22:10:03+02:00"
          },
          {
            "number": "37",
            "name": "AUBERGE DE JEUNESSE",
            "address": "83 RUE DE SAINT-MALO",
            "state": "1",
            "latitude": "48.120876",
            "longitude": "-1.681876",
            "slotsavailable": "0",
            "bikesavailable": "18",
            "pos": "0",
            "district": "St Martin",
            "lastupdate": "2015-07-14T22:10:03+02:00"
          },
          {
            "number": "57",
            "name": "ATALANTE CHAMPEAUX",
            "address": "7 RUE JULES MAILLARD DE LA GOURNERIE",
            "state": "1",
            "latitude": "48.116123",
            "longitude": "-1.713729",
            "slotsavailable": "26",
            "bikesavailable": "4",
            "pos": "0",
            "district": "Bourg l'Ev\u00eaque-La Touche-Moulin du Comte",
            "lastupdate": "2015-07-14T22:10:03+02:00"
          },
          {
            "number": "33",
            "name": "ANATOLE FRANCE",
            "address": "3 AVENUE DU 41\u00c8ME R\u00c9GIMENT D'INFANTERI",
            "state": "1",
            "latitude": "48.118",
            "longitude": "-1.686465",
            "slotsavailable": "13",
            "bikesavailable": "1",
            "pos": "0",
            "district": "Bourg l'Ev\u00eaque-La Touche-Moulin du Comte",
            "lastupdate": "2015-07-14T22:10:03+02:00"
          },
          {
            "number": "68",
            "name": "ALMA",
            "address": "9 RUE DU BOSPHORE",
            "state": "1",
            "latitude": "48.082397",
            "longitude": "-1.677634",
            "slotsavailable": "11",
            "bikesavailable": "9",
            "pos": "0",
            "district": "Br\u00e9quigny",
            "lastupdate": "2015-07-14T22:10:03+02:00"
          },
          {
            "number": "83",
            "name": "RONCERAY",
            "address": "110 RUE DE LA POTERIE",
            "state": "1",
            "latitude": "48.092785",
            "longitude": "-1.640468",
            "slotsavailable": "11",
            "bikesavailable": "10",
            "pos": "0",
            "district": "Francisco Ferrer-Vern-Poterie",
            "lastupdate": "2015-07-14T22:10:03+02:00"
          },
          {
            "number": "82",
            "name": "LA POTERIE",
            "address": "211 RUE DE VERN",
            "state": "1",
            "latitude": "48.087276",
            "longitude": "-1.644126",
            "slotsavailable": "18",
            "bikesavailable": "10",
            "pos": "0",
            "district": "Francisco Ferrer-Vern-Poterie",
            "lastupdate": "2015-07-14T22:10:03+02:00"
          },
          {
            "number": "54",
            "name": "PONTCHAILLOU (TER)",
            "address": "CHR PONTCHAILLOU",
            "state": "1",
            "latitude": "48.119186",
            "longitude": "-1.691598",
            "slotsavailable": "19",
            "bikesavailable": "5",
            "pos": "0",
            "district": "Villejean-Beauregard",
            "lastupdate": "2015-07-14T22:10:03+02:00"
          },
          {
            "number": "84",
            "name": "GARE BEAUMONT",
            "address": "22 BOULEVARD BEAUMONT",
            "state": "1",
            "latitude": "48.103832",
            "longitude": "-1.674006",
            "slotsavailable": "18",
            "bikesavailable": "6",
            "pos": "1",
            "district": "Sud-Gare",
            "lastupdate": "2015-07-14T22:10:03+02:00"
          },
          {
            "number": "85",
            "name": "LA COUROUZE",
            "address": "RUE CLAUDE BERNARD",
            "state": "1",
            "latitude": "48.098909",
            "longitude": "-1.694523",
            "slotsavailable": "10",
            "bikesavailable": "10",
            "pos": "0",
            "district": "Cleunay-Arsenal-Redon",
            "lastupdate": "2015-07-14T22:10:03+02:00"
          }
        ]
      }
    }
  }
}